City_ID,City,Cloudiness,Country,Date,Humidity,Lat,Lng,Max Temp,Wind Speed
0,airai,8,TL,1530926299,83,-8.93,125.41,69.91,1.92
1,khilok,92,RU,1530926560,85,51.36,110.46,52.09,7.07
2,casino,0,AU,1530926560,93,-28.86,153.05,65.32,4.83
3,georgetown,0,GY,1530921600,94,6.8,-58.16,77.0,4.7
4,rikitea,64,PF,1530926270,100,-23.12,-134.97,74.68,7.4
5,cidreira,92,BR,1530926288,97,-30.17,-50.22,60.37,16.35
6,jamestown,76,AU,1530926266,79,-33.21,138.6,47.68,18.25
7,bartica,0,GY,1530925200,94,6.41,-58.62,77.0,2.24
8,mahebourg,40,MU,1530921600,64,-20.41,57.7,73.4,14.99
9,qaanaaq,88,GL,1530926106,97,77.48,-69.36,32.29,2.71
10,port elizabeth,75,US,1530924960,88,39.31,-74.98,78.8,3.36
11,mbini,40,GQ,1530925200,100,1.58,9.62,77.0,6.93
12,ancud,68,CL,1530926328,88,-41.87,-73.83,43.45,3.83
13,hilo,90,US,1530925440,78,19.71,-155.08,80.6,10.29
14,aquiraz,75,BR,1530925200,94,-3.9,-38.39,75.2,11.41
15,punta arenas,75,CL,1530921600,100,-53.16,-70.91,32.0,5.82
16,albany,20,US,1530924840,43,42.65,-73.75,71.6,14.99
17,busselton,0,AU,1530926285,100,-33.64,115.35,54.25,9.08
18,hasaki,75,JP,1530923400,74,35.73,140.83,84.2,12.75
19,ushuaia,20,AR,1530921600,100,-54.81,-68.31,33.8,13.87
20,itarema,36,BR,1530926262,82,-2.92,-39.92,78.55,15.12
21,leningradskiy,44,RU,1530926364,51,69.38,178.42,54.25,8.75
22,oriximina,68,BR,1530926564,74,-1.77,-55.87,79.72,3.83
23,kaitangata,8,NZ,1530926287,86,-46.28,169.85,52.27,20.49
24,takaka,92,NZ,1530926565,99,-40.86,172.81,53.35,17.25
25,cap malheureux,40,MU,1530925200,68,-19.98,57.61,71.6,16.11
26,constitucion,75,MX,1530924120,38,23.99,-104.67,73.4,3.36
27,kapaa,20,US,1530921360,66,22.08,-159.32,86.0,18.34
28,mataura,32,NZ,1530926289,86,-46.19,168.86,51.91,16.58
29,adrar,0,DZ,1530925200,10,27.87,-0.29,93.2,9.17
30,coquimbo,90,CL,1530921600,100,-29.95,-71.34,53.6,5.17
31,alugan,0,PH,1530926567,100,12.22,125.48,81.43,4.61
32,port alfred,0,ZA,1530926292,96,-33.59,26.89,60.64,13.0
33,olga,1,US,1530925080,7,34.11,-118.17,114.8,13.87
34,ribeira grande,80,PT,1530926291,100,38.52,-28.7,70.99,13.0
35,tikrit,0,IQ,1530926568,22,34.62,43.68,82.24,6.96
36,bethel,1,US,1530924780,49,60.79,-161.76,71.6,3.49
37,saquisili,75,EC,1530925200,81,-0.83,-78.67,51.8,10.29
38,nikolskoye,75,RU,1530923400,93,59.7,30.79,60.8,6.71
39,bathsheba,40,BB,1530921600,83,13.22,-59.52,78.8,13.87
40,yulara,0,AU,1530925200,46,-25.24,130.99,53.6,16.11
41,hermanus,0,ZA,1530926262,79,-34.42,19.24,37.96,2.93
42,kodiak,1,US,1530921180,43,39.95,-94.76,87.8,5.82
43,alofi,90,NU,1530925200,100,-19.06,-169.92,68.0,13.87
44,kahului,40,US,1530924960,66,20.89,-156.47,84.2,21.92
45,atuona,80,PF,1530926267,100,-9.8,-139.03,79.27,18.03
46,avarua,90,CK,1530925200,94,-21.21,-159.78,69.8,6.93
47,isangel,32,VU,1530926571,100,-19.55,169.27,74.23,17.25
48,cape town,0,ZA,1530921600,81,-33.93,18.42,44.6,2.24
49,itoman,75,JP,1530924960,74,26.12,127.67,86.0,13.87
50,sabang,68,PH,1530926571,95,13.72,123.58,81.97,4.83
51,road town,1,VG,1530924780,69,18.42,-64.62,82.4,17.22
52,dikson,76,RU,1530926307,100,73.51,80.55,37.69,15.79
53,kiruna,92,SE,1530924600,93,67.86,20.23,48.2,9.17
54,saint-maximin-la-sainte-baume,0,FR,1530925200,64,43.45,5.86,75.2,2.24
55,upernavik,8,GL,1530926288,100,72.79,-56.15,35.08,5.84
56,la argentina,44,CO,1530926574,83,2.2,-75.98,52.36,1.92
57,hualmay,32,PE,1530926574,100,-11.1,-77.61,57.4,2.93
58,hobart,75,AU,1530925200,81,-42.88,147.33,46.4,6.93
59,bredasdorp,0,ZA,1530921600,93,-34.53,20.04,41.0,3.36
60,yurga,0,RU,1530926575,83,55.71,84.93,50.65,5.17
61,lima,20,PE,1530926186,76,-12.06,-77.04,58.57,1.14
62,kavieng,20,PG,1530926298,100,-2.57,150.8,81.52,4.94
63,bambanglipuro,0,ID,1530926575,91,-7.95,110.28,66.85,3.38
64,sindor,76,RU,1530926576,98,62.87,51.9,60.46,3.38
65,bluff,76,AU,1530926263,93,-23.58,149.07,68.65,4.61
66,puerto ayora,40,EC,1530921600,73,-0.74,-90.35,75.2,13.87
67,broome,0,GB,1530924960,93,52.47,1.45,64.4,3.36
68,george,20,NG,1530925200,94,6.63,3.35,77.0,2.24
69,conceicao do araguaia,20,BR,1530926577,43,-8.26,-49.26,78.82,5.17
70,klaksvik,92,FO,1530924600,100,62.23,-6.59,50.0,4.7
71,berezovyy,12,RU,1530926578,63,51.67,135.7,68.11,3.04
72,victoria point,75,AU,1530925200,78,-27.58,153.3,73.4,10.29
73,seymchan,0,RU,1530926323,22,62.93,152.39,76.57,3.6
74,tautira,20,PF,1530925200,70,-17.73,-149.15,84.2,12.75
75,lazi,0,HR,1530925200,56,45.57,14.64,73.4,8.05
76,angoche,0,MZ,1530926579,100,-16.23,39.91,77.11,12.44
77,srednekolymsk,8,RU,1530926351,16,67.46,153.71,87.19,3.15
78,vaini,92,IN,1530926293,99,15.34,74.49,67.93,4.72
79,thompson,20,CA,1530925200,39,55.74,-97.86,82.4,9.17
80,agadir,0,MA,1530925200,82,30.42,-9.58,66.2,2.24
81,arraial do cabo,0,BR,1530926292,99,-22.97,-42.02,69.01,4.94
82,houma,48,CN,1530926572,88,35.63,111.36,73.42,3.27
83,mar del plata,8,AR,1530926214,100,-46.43,-67.52,24.28,3.6
84,chokurdakh,92,RU,1530926391,96,70.62,147.9,46.42,14.67
85,codrington,0,AU,1530926390,93,-28.95,153.24,65.32,4.83
86,buchanan,92,LR,1530926442,100,5.88,-10.05,76.39,6.62
87,saint george,20,GR,1530924600,83,39.45,22.34,71.6,3.04
88,victoria,90,BN,1530921600,94,5.28,115.24,77.0,1.12
89,wilmington,1,US,1530924900,61,39.75,-75.55,78.8,8.05
90,chuy,92,UY,1530926316,83,-33.69,-53.46,55.78,17.02
91,east london,0,ZA,1530926316,100,-33.02,27.91,65.95,16.24
92,nouadhibou,12,MR,1530925200,69,20.93,-17.03,73.4,10.29
93,gweta,0,BW,1530926584,74,-20.21,25.26,51.55,14.9
94,songkhla,40,TH,1530923400,94,7.2,100.6,80.6,3.36
95,kovdor,12,RU,1530926585,63,67.56,30.47,55.69,4.83
96,sumenep,0,ID,1530926585,95,-7.02,113.87,80.26,11.65
97,san quintin,40,PH,1530921600,78,17.54,120.52,82.4,4.7
98,rapina,0,EE,1530924600,100,58.1,27.46,60.8,9.17
99,becerril,24,CO,1530926586,55,9.7,-73.28,79.9,1.14
100,port blair,88,IN,1530926373,97,11.67,92.75,83.5,23.06
101,kayes,68,ML,1530926586,100,14.44,-11.44,72.97,9.98
102,smidovich,0,RU,1530926586,71,48.6,133.81,71.08,3.71
103,kutoarjo,0,ID,1530926587,93,-7.72,109.9,72.07,6.96
104,ewa beach,20,US,1530925020,45,21.32,-158.01,87.8,14.99
105,ilulissat,0,GL,1530924600,86,69.22,-51.1,39.2,5.82
106,hithadhoo,56,MV,1530926288,100,-0.6,73.08,78.82,8.41
107,lagoa,0,PT,1530925200,53,37.14,-8.45,73.4,6.93
108,esperance,20,TT,1530921600,88,10.24,-61.45,78.8,5.82
109,ranong,75,TH,1530921600,100,9.96,98.62,78.8,1.12
110,vila do maio,0,CV,1530926588,100,15.13,-23.22,74.59,5.61
111,mizdah,0,LY,1530926340,32,31.45,12.98,77.65,5.28
112,moroni,48,US,1530926589,22,39.52,-111.59,85.75,2.82
113,souillac,0,FR,1530925200,88,45.6,-0.6,62.6,4.61
114,faanui,36,PF,1530926394,100,-16.48,-151.75,79.99,10.42
115,mayna,92,RU,1530926590,100,53.0,91.49,48.94,1.59
116,tessalit,0,ML,1530926334,13,20.2,1.01,75.94,4.38
117,cap-aux-meules,75,CA,1530925200,82,47.38,-61.86,62.6,16.11
118,margate,75,AU,1530925200,81,-43.03,147.26,46.4,6.93
119,ponta do sol,0,BR,1530926274,73,-20.63,-46.0,58.03,4.83
120,tuktoyaktuk,90,CA,1530925200,81,69.44,-133.03,44.6,13.87
121,nanortalik,76,GL,1530926319,98,60.14,-45.24,36.25,1.92
122,awjilah,0,LY,1530926435,39,29.14,21.3,79.45,9.98
123,torbay,75,CA,1530925200,88,47.66,-52.73,64.4,26.4
124,west bay,0,GB,1530924600,93,50.71,-2.76,60.8,2.24
125,lebu,76,ET,1530926283,93,8.96,38.73,47.59,3.15
126,talnakh,36,RU,1530926593,55,69.49,88.39,52.09,3.71
127,vanimo,64,PG,1530926593,100,-2.67,141.3,78.55,7.4
128,madang,44,PG,1530926594,96,-5.21,145.81,78.64,3.15
129,castro,32,CL,1530926270,95,-42.48,-73.76,40.3,2.82
130,coihaique,0,CL,1530921600,86,-45.58,-72.07,30.2,1.92
131,sibolga,64,ID,1530926374,98,1.74,98.78,70.18,1.7
132,carnarvon,0,ZA,1530926301,56,-30.97,22.13,23.65,3.38
133,narsaq,75,GL,1530924600,70,60.91,-46.05,46.4,6.93
134,bambous virieux,40,MU,1530921600,64,-20.34,57.76,73.4,14.99
135,panzhihua,88,CN,1530926596,98,26.59,101.72,64.69,1.7
136,sterling,75,US,1530925020,54,39.0,-77.4,84.2,8.05
137,saint-philippe,1,CA,1530925200,42,45.36,-73.48,64.4,11.41
138,nome,90,US,1530924900,66,30.04,-94.42,86.0,4.7
139,longyearbyen,40,NO,1530924600,61,78.22,15.63,48.2,3.36
140,louiseville,0,CA,1530926597,54,46.26,-72.95,60.82,12.55
141,burnie,12,AU,1530926597,100,-41.05,145.91,50.92,31.0
142,arlit,20,NE,1530926426,15,18.74,7.39,74.41,3.38
143,vysokogornyy,0,RU,1530926598,63,50.1,139.13,63.61,3.04
144,hami,0,CN,1530926376,41,42.84,93.51,67.21,6.17
145,pevek,48,RU,1530926279,65,69.7,170.27,55.87,5.61
146,samarai,80,PG,1530926269,100,-10.62,150.67,77.92,10.76
147,knysna,0,ZA,1530925200,35,-34.04,23.05,55.4,4.7
148,lorengau,88,PG,1530926599,100,-2.02,147.27,78.19,6.17
149,lavrentiya,56,RU,1530926352,100,65.58,-170.99,43.63,10.31
150,brigantine,40,US,1530924960,88,39.41,-74.36,77.0,3.36
151,ottawa,20,CA,1530925200,45,45.42,-75.69,62.6,8.05
152,tasiilaq,48,GL,1530924600,75,65.61,-37.64,41.0,3.36
153,muncar,36,ID,1530926600,89,-8.43,114.34,75.49,8.41
154,madera,1,US,1530924900,20,36.96,-120.06,100.4,16.11
155,grindavik,75,IS,1530923400,93,63.84,-22.43,46.4,4.7
156,papara,75,BR,1530925200,94,-3.98,-38.73,75.2,11.41
157,vestmannaeyjar,92,IS,1530926341,100,63.44,-20.27,48.31,10.42
158,ayorou,48,NE,1530926602,60,14.73,0.92,83.41,9.86
159,cabo san lucas,5,MX,1530924780,38,22.89,-109.91,91.4,4.7
160,flagstaff,75,US,1530925020,24,35.2,-111.65,82.4,6.93
161,puerto carreno,40,CO,1530925200,74,6.19,-67.49,84.2,6.93
162,tongren,92,CN,1530926603,99,27.72,109.18,72.52,5.17
163,kinlochleven,0,GB,1530926603,79,56.71,-4.97,45.34,2.48
164,aksay,0,RU,1530926604,87,47.27,39.86,63.97,2.71
165,vanavara,32,RU,1530926298,72,60.35,102.28,55.24,3.71
166,inongo,0,CD,1530926605,72,-1.93,18.29,72.34,3.27
167,san policarpo,0,PH,1530926605,100,12.18,125.51,81.43,4.61
168,maragogi,92,BR,1530926605,93,-9.01,-35.22,75.04,8.41
169,butaritari,20,KI,1530926294,100,3.07,172.79,83.41,8.41
170,paamiut,48,GL,1530926326,98,61.99,-49.67,39.04,4.38
171,trindade,0,BR,1530921600,49,-16.66,-49.49,68.0,3.36
172,aykhal,100,RU,1530926411,100,65.95,111.51,44.89,6.96
173,severo-kurilsk,24,RU,1530926272,90,50.68,156.12,49.93,4.94
174,sheboygan,1,US,1530924960,48,43.75,-87.71,71.6,5.82
175,bayangol,0,MN,1530926607,77,48.91,106.09,52.72,4.27
176,saskylakh,76,RU,1530926286,70,71.97,114.09,48.94,4.61
177,kibakwe,32,TZ,1530926608,92,-6.71,36.37,57.76,4.38
178,shar,64,NG,1530926608,93,7.3,8.73,72.34,3.49
179,havelock,1,US,1530921480,78,34.88,-76.9,82.4,5.82
180,talara,0,PE,1530926608,73,-4.58,-81.27,70.81,8.19
181,fairbanks,1,US,1530925080,43,64.84,-147.72,71.6,5.82
182,sao jose da coroa grande,92,BR,1530926609,93,-8.9,-35.15,75.04,8.41
183,pangody,24,RU,1530926609,48,65.85,74.49,59.29,6.62
184,qasigiannguit,0,GL,1530924600,86,68.82,-51.19,39.2,5.82
185,geraldton,20,CA,1530925200,46,49.72,-86.95,69.8,6.93
186,polson,88,US,1530926610,21,47.69,-114.16,81.52,5.61
187,yellowknife,75,CA,1530923520,67,62.45,-114.38,60.8,23.04
188,chernenko,24,UA,1530926610,48,47.23,37.74,68.65,4.83
189,udachnyy,92,RU,1530926332,100,66.42,112.4,45.7,4.38
190,kaspiysk,40,RU,1530923400,88,42.88,47.64,71.6,17.9
191,lyaskelya,92,RU,1530926611,95,61.77,31.02,59.47,9.42
192,sitka,20,US,1530926318,64,37.17,-99.65,88.27,6.96
193,atar,0,MR,1530926615,16,20.52,-13.05,81.07,3.38
194,bushehr,0,IR,1530921600,94,28.97,50.84,84.2,4.7
195,hamilton,40,BM,1530921300,78,32.3,-64.78,78.8,9.17
196,fort nelson,75,CA,1530925200,36,58.81,-122.69,75.2,13.87
197,rantepao,36,ID,1530926616,91,-2.97,119.9,68.92,2.15
198,arkhipo-osipovka,0,RU,1530926617,77,44.37,38.53,69.82,3.71
199,impfondo,36,CD,1530926617,96,1.62,18.06,70.0,2.59
200,port lincoln,36,AU,1530926314,86,-34.72,135.86,57.13,22.62
201,saldanha,0,PT,1530926317,94,41.42,-6.55,56.14,2.71
202,mantua,40,IT,1530924600,64,45.16,10.79,69.8,5.82
203,haines junction,92,CA,1530926322,53,60.75,-137.51,60.73,2.93
204,kozhva,92,RU,1530926363,70,65.11,57.05,66.67,5.95
205,petropavlovsk-kamchatskiy,75,RU,1530923400,76,53.05,158.65,57.2,4.47
206,opuwo,0,NA,1530926358,66,-18.06,13.84,43.27,6.62
207,praia da vitoria,40,PT,1530925200,78,38.73,-27.07,71.6,7.96
208,maraa,24,BR,1530926268,98,-1.83,-65.37,72.97,2.93
209,bowen,90,AU,1530921600,88,-20.01,148.25,73.4,6.93
210,dalby,90,AU,1530921600,100,-27.18,151.26,64.4,16.11
211,kolda,75,SN,1530921600,88,12.89,-14.94,77.0,6.62
212,san patricio,92,PY,1530926337,64,-26.98,-56.83,72.97,4.05
213,ramanuj ganj,12,IN,1530926621,88,23.81,83.7,76.39,2.93
214,barrow,92,AR,1530926228,87,-38.31,-60.23,43.0,8.97
215,bilibino,0,RU,1530926287,44,68.06,166.44,77.56,3.04
216,porto novo,20,BR,1530921600,63,-23.68,-45.44,64.4,2.71
217,san luis,0,AR,1530926622,83,-33.3,-66.34,36.34,2.71
218,pacific grove,1,US,1530924840,49,36.62,-121.92,75.2,8.05
219,ahipara,80,NZ,1530926305,87,-35.17,173.16,58.21,16.69
220,palmer,75,AU,1530925200,71,-34.85,139.16,53.6,18.34
221,boali,32,CF,1530925200,100,4.81,18.11,71.6,2.24
222,shingu,75,JP,1530921600,88,33.72,135.99,78.8,19.46
223,avera,75,US,1530924900,78,33.19,-82.53,84.2,9.17
224,juegang,88,CN,1530926624,96,32.31,121.18,77.29,19.82
225,lodi,0,IT,1530924600,94,45.31,9.5,69.8,2.24
226,la ronge,40,CA,1530925200,48,55.1,-105.3,87.8,17.22
227,cherskiy,48,RU,1530926283,31,68.75,161.3,70.27,3.15
228,hay river,90,CA,1530925200,82,60.82,-115.79,60.8,9.17
229,muros,0,ES,1530925200,100,42.77,-9.06,60.8,4.7
230,khatanga,0,RU,1530926269,71,71.98,102.47,51.19,5.5
231,norman wells,75,CA,1530925440,81,65.28,-126.83,51.8,16.11
232,bam,0,IR,1530926626,24,29.11,58.36,67.57,5.95
233,berlevag,44,NO,1530926627,79,70.86,29.09,50.29,0.92
234,banda aceh,44,ID,1530926627,98,5.56,95.32,75.94,2.48
235,buala,92,SB,1530926276,100,-8.15,159.59,76.39,12.88
236,lucea,20,JM,1530925200,66,18.44,-78.17,84.2,3.36
237,mehamn,88,NO,1530926300,91,71.03,27.85,49.39,4.61
238,shimanovsk,0,RU,1530926628,59,52.0,127.67,71.26,3.71
239,iralaya,40,HN,1530921600,78,15.0,-83.23,82.4,8.05
240,saint anthony,1,US,1530924960,28,43.97,-111.68,87.8,5.82
241,sorland,80,NO,1530926437,97,67.67,12.69,51.19,11.65
242,karasjok,80,NO,1530924600,87,69.47,25.52,50.0,11.41
243,sayat,0,TM,1530921600,29,38.78,63.88,75.2,4.7
244,ostrovnoy,12,RU,1530926266,88,68.05,39.51,46.69,14.23
245,coos bay,1,US,1530924960,68,43.37,-124.22,66.2,13.87
246,emerald,20,AU,1530926630,86,-23.53,148.16,69.1,3.38
247,camacari,40,BR,1530925200,69,-12.7,-38.32,78.8,6.93
248,komsomolskiy,68,RU,1530926631,58,67.55,63.78,59.65,9.64
249,buzmeyin,0,TM,1530921600,32,38.05,58.21,80.6,2.24
250,new norfolk,75,AU,1530925200,81,-42.78,147.06,46.4,6.93
251,inhambane,76,MZ,1530926632,97,-23.87,35.38,69.37,18.37
252,port augusta,24,AU,1530925200,54,-32.49,137.76,57.2,17.22
253,anchorage,1,US,1530924960,44,61.22,-149.89,80.6,11.41
254,selaphum,20,TH,1530921600,83,16.03,103.94,78.8,6.93
255,touros,80,BR,1530926633,100,-5.2,-35.46,75.04,11.65
256,tijara,0,IN,1530926633,83,27.94,76.85,78.19,2.82
257,mangaratiba,75,BR,1530921600,88,-22.96,-44.04,73.4,5.82
258,paragominas,64,BR,1530926401,56,-3.0,-47.35,83.32,7.52
259,tabuk,76,PH,1530926439,93,17.41,121.44,72.07,0.36
260,richards bay,36,ZA,1530926405,100,-28.77,32.06,55.87,4.5
261,seoul,1,KR,1530924960,64,37.57,126.98,75.2,9.17
262,araouane,80,ML,1530926344,19,18.9,-3.53,92.86,3.38
263,panguna,92,PG,1530926635,89,-6.32,155.48,78.19,3.15
264,omsukchan,0,RU,1530926635,31,62.53,155.8,69.37,3.6
265,astoria,75,US,1530924900,82,46.19,-123.83,62.6,18.34
266,provideniya,56,RU,1530926320,100,64.42,-173.23,43.27,8.19
267,rocha,92,UY,1530926636,93,-34.48,-54.34,51.82,11.77
268,bubaque,40,GW,1530925200,94,11.28,-15.83,78.8,13.56
269,puerto varas,0,CL,1530921600,87,-41.32,-72.98,46.4,4.7
270,yar-sale,80,RU,1530926637,72,66.83,70.83,53.62,5.39
271,davila,40,PH,1530921600,78,18.47,120.58,82.4,4.7
272,necochea,92,AR,1530926388,100,-38.55,-58.74,43.72,10.54
273,lasa,0,CY,1530925200,60,34.92,32.53,77.0,6.93
274,talcahuano,90,CL,1530921600,87,-36.72,-73.12,53.6,17.22
275,mayumba,92,GA,1530926638,97,-3.44,10.65,71.35,2.82
276,olinda,20,EC,1530925200,88,-2.03,-79.75,71.6,11.41
277,choya,48,RU,1530926639,85,52.01,86.55,56.32,2.93
278,parfenyevo,56,RU,1530926639,96,58.48,43.41,54.16,4.16
279,lesnoy,0,RU,1530926640,88,59.78,52.13,59.29,3.49
280,nova olimpia,0,BR,1530926640,71,-14.8,-57.29,69.55,4.27
281,estacion coahuila,20,MX,1530925020,16,32.19,-115.0,113.0,16.11
282,mangotsfield,0,GB,1530924960,100,51.49,-2.5,62.6,8.05
283,bahia honda,36,CU,1530926641,75,22.9,-83.16,83.77,4.5
284,lushoto,88,TZ,1530926641,99,-4.8,38.29,62.89,2.82
285,helong,92,CN,1530926641,98,25.94,116.13,75.04,4.94
286,niquero,36,CU,1530926642,87,20.04,-77.58,85.21,7.18
287,bafia,68,CM,1530926642,97,4.74,11.22,67.12,2.37
288,magnolia,75,US,1530926100,78,33.27,-93.24,86.0,3.36
289,tual,44,ID,1530926386,100,-5.67,132.75,79.45,14.67
290,yerbogachen,36,RU,1530926643,76,61.28,108.01,57.31,4.38
291,caravelas,0,BR,1530926345,100,-17.73,-39.27,75.49,7.96
292,conde,88,BR,1530926644,87,-11.81,-37.61,74.77,8.75
293,derzhavinsk,0,KZ,1530926398,89,51.1,66.31,65.05,7.18
294,juquitiba,92,BR,1530921600,82,-23.93,-47.07,64.4,5.82
295,khorramshahr,0,IR,1530925200,62,30.43,48.18,96.8,4.7
296,qinzhou,64,CN,1530926645,80,21.96,108.62,85.75,8.63
297,mecca,0,SA,1530921600,33,21.43,39.83,91.4,3.38
298,ternate,75,PH,1530921600,100,14.29,120.72,82.4,6.93
299,smithers,75,CA,1530925200,49,54.78,-127.17,69.8,11.41
300,salinas,1,US,1530924840,47,36.67,-121.66,75.2,11.41
301,mirnyy,8,RU,1530926646,81,56.57,36.46,58.39,8.19
302,aksu,90,KZ,1530923400,56,52.04,76.93,68.0,8.95
303,kelvington,48,CA,1530926647,40,52.16,-103.52,88.72,16.02
304,dunedin,0,NZ,1530926154,75,-45.87,170.5,55.78,11.21
305,san cristobal,75,EC,1530921600,71,-0.39,-78.55,55.4,11.41
306,changping,100,CN,1530923400,88,40.22,116.23,75.2,4.47
307,lata,8,IN,1530926648,78,30.78,78.62,55.42,2.15
308,cacu,0,BR,1530926470,52,-18.56,-51.13,65.32,6.17
309,nara,75,JP,1530924540,94,34.68,135.8,77.0,5.82
310,raudeberg,92,NO,1530924600,81,61.99,5.14,51.8,3.36
311,harper,1,US,1530925080,33,30.3,-99.24,89.6,10.76
312,port-cartier,75,CA,1530925200,58,50.03,-66.88,57.2,11.41
313,katsuura,75,JP,1530924540,88,33.93,134.5,77.0,11.41
314,sisimiut,0,GL,1530926346,77,66.94,-53.67,43.99,1.7
315,luderitz,36,NA,1530926342,52,-26.65,15.16,66.49,18.48
316,manama,0,AE,1530921600,59,25.33,56.02,100.4,3.36
317,henties bay,88,NA,1530926652,49,-22.12,14.28,73.06,19.82
318,sibu,75,MY,1530921600,94,2.29,111.83,77.0,3.36
319,belaya gora,8,RU,1530926653,57,68.54,146.19,83.95,2.93
320,tabou,100,CI,1530926653,100,4.42,-7.36,77.2,11.88
321,taoudenni,0,ML,1530926653,19,22.68,-3.98,81.79,3.83
322,bulaevo,92,KZ,1530926654,69,54.91,70.44,68.56,2.71
323,pitimbu,0,BR,1530921600,88,-7.47,-34.81,75.2,5.82
324,portland,20,US,1530924960,32,45.52,-122.67,80.6,12.75
325,ust-tsilma,36,RU,1530926654,93,65.44,52.15,61.9,4.27
326,luanda,0,AO,1530922200,88,-8.83,13.24,71.6,3.36
327,cayenne,0,GF,1530925200,100,4.94,-52.33,77.0,7.07
328,vila franca do campo,75,PT,1530925200,94,37.72,-25.43,69.8,3.36
329,quatre cocos,40,MU,1530925200,68,-20.21,57.76,71.6,16.11
330,kulhudhuffushi,68,MV,1530926398,100,6.62,73.07,78.82,16.69
331,naberera,92,TZ,1530926656,98,-4.2,36.93,59.83,6.17
332,yelan,76,RU,1530926657,58,50.95,43.74,68.74,2.93
333,muskogee,1,US,1530924900,100,35.75,-95.37,84.2,7.96
334,gat,24,SN,1530921600,74,14.69,-16.54,84.2,2.24
335,atasu,76,KZ,1530926657,33,48.68,71.64,73.42,13.22
336,bata,40,GQ,1530925200,100,1.87,9.77,77.0,6.93
337,barra patuca,12,HN,1530926367,87,15.8,-84.28,83.05,15.79
338,labuhan,32,ID,1530926658,88,-2.54,115.51,75.13,2.71
339,polovinnoye,100,RU,1530926408,81,54.79,65.99,69.19,1.14
340,saquarema,40,BR,1530921600,94,-22.93,-42.51,73.4,11.41
341,ajdabiya,0,LY,1530926293,78,30.75,20.22,74.23,10.76
342,lethem,24,GY,1530926660,88,3.38,-59.8,74.23,6.62
343,zonguldak,0,TR,1530926660,95,41.25,31.83,63.07,2.37
344,iwanai,88,JP,1530926660,93,42.97,140.51,58.75,2.71
345,malindi,92,KE,1530926426,91,-3.22,40.12,75.85,18.25
346,cervo,0,BR,1530926661,85,-22.19,-46.24,54.07,3.27
347,bouza,68,NE,1530926661,95,14.42,6.04,69.91,13.11
348,boda,92,BD,1530926661,98,26.2,88.56,76.75,4.61
349,fairfield,1,US,1530925080,24,38.25,-122.04,95.0,5.82
350,zyryanka,0,RU,1530926426,21,65.73,150.89,82.24,2.93
351,turukhansk,44,RU,1530926663,69,65.8,87.96,53.8,4.38
352,vila velha,75,BR,1530925200,94,-3.71,-38.6,75.2,11.41
353,rovaniemi,0,FI,1530924600,82,66.5,25.72,59.0,9.17
354,basudebpur,64,IN,1530926663,100,21.14,86.74,79.09,6.96
355,gizo,75,IL,1530924600,78,31.8,34.94,77.0,6.93
356,bandarbeyla,0,SO,1530926388,74,9.49,50.81,80.62,22.84
357,kysyl-syr,8,RU,1530926664,81,63.9,122.77,72.97,3.6
358,salalah,90,OM,1530921000,88,17.01,54.1,78.8,8.05
359,teguldet,12,RU,1530926665,89,57.31,88.17,50.83,2.71
360,sur,0,OM,1530926665,88,22.57,59.53,86.56,8.75
361,pudozh,56,RU,1530926665,87,61.81,36.54,56.32,3.27
362,kedgwick,68,CA,1530926666,67,47.65,-67.35,56.05,10.54
363,meulaboh,88,ID,1530926299,100,4.14,96.13,78.64,3.6
364,masuguru,0,MZ,1530926666,79,-11.38,38.46,70.27,6.62
365,bukan,0,IR,1530926666,67,36.52,46.21,58.39,2.59
366,laramie,1,US,1530925080,30,41.31,-105.59,84.2,20.8
367,banjar,48,ID,1530926667,87,-7.37,108.54,62.98,2.37
368,great bend,1,US,1530924960,62,38.36,-98.78,87.8,8.05
369,adelaide,75,AU,1530925200,71,-34.93,138.6,53.6,18.34
370,comodoro rivadavia,0,AR,1530921600,100,-45.87,-67.48,41.0,5.82
371,yekimovichi,80,RU,1530926668,82,54.11,33.29,57.4,6.17
372,vardo,20,US,1530924900,50,39.62,-77.74,78.8,5.82
373,nuevitas,20,CU,1530921000,78,21.55,-77.27,80.6,10.29
374,taltal,0,CL,1530926340,85,-25.41,-70.49,50.47,2.04
375,fortuna,0,ES,1530925200,88,38.18,-1.13,73.4,4.7
376,svetlaya,0,RU,1530926669,92,46.54,138.33,55.6,5.39
377,princeton,1,US,1530926100,46,41.37,-89.46,73.4,8.05
378,bay city,1,US,1530926100,52,43.59,-83.89,69.8,4.7
379,shawnee,1,US,1530924960,65,35.33,-96.93,84.2,4.7
380,griffith,92,AU,1530926671,98,-34.29,146.06,46.69,16.13
381,huron,1,US,1530924900,54,44.36,-98.21,80.6,14.99
382,tiksi,92,RU,1530926316,97,71.64,128.87,37.69,9.53
383,kloulklubed,90,PW,1530924900,74,7.04,134.26,84.2,9.17
384,clyde river,90,CA,1530925200,93,70.47,-68.59,37.4,5.82
385,marawi,48,PH,1530926673,86,8.0,124.29,74.14,3.15
386,vao,80,EE,1530926674,90,59.1,26.19,59.92,7.29
387,galle,1,US,1530924960,52,29.74,-97.91,91.4,6.93
388,mayo,90,CA,1530925200,48,63.59,-135.9,62.6,4.7
389,shelabolikha,0,RU,1530923400,93,53.41,82.62,57.2,4.47
390,newport,0,GB,1530924600,100,51.59,-3.0,59.0,8.05
391,tay ninh,68,VN,1530926676,96,11.3,106.1,77.11,8.19
392,chicama,90,PE,1530925200,88,-7.84,-79.15,62.6,6.93
393,casper,1,US,1530924780,10,42.87,-106.31,93.2,3.36
394,pisco,40,PE,1530921600,87,-13.71,-76.2,60.8,11.41
395,lincoln,0,GB,1530924600,77,53.23,-0.54,64.4,2.24
396,linxia,88,CN,1530926678,99,35.6,103.21,55.69,2.82
397,dangtu,90,CN,1530921600,94,31.57,118.49,78.8,13.42
398,tecoanapa,75,MX,1530924720,79,16.99,-99.26,86.0,4.05
399,lubao,90,PH,1530921600,88,14.94,120.6,82.4,4.7
400,saint-pierre,0,FR,1530925200,72,48.95,4.24,62.6,5.82
401,bogorodskoye,0,RU,1530926679,66,52.37,140.44,63.25,3.04
402,charters towers,92,AU,1530926679,100,-20.07,146.27,64.69,4.38
403,namwala,80,ZM,1530926680,82,-15.75,26.45,55.42,8.3
404,pasni,92,PK,1530926428,100,25.26,63.48,83.59,9.19
405,sao filipe,0,CV,1530926343,99,14.9,-24.5,74.59,8.52
406,illela,44,NG,1530926680,92,12.25,4.3,76.57,5.39
407,klin,75,RU,1530923400,82,56.34,36.74,60.8,4.47
408,ossora,92,RU,1530926681,100,59.24,163.07,47.95,6.4
409,ust-nera,0,RU,1530926681,25,64.57,143.24,79.45,2.26
410,campo formoso,76,BR,1530926682,67,-10.51,-40.32,71.98,10.76
411,damietta,0,EG,1530921600,83,31.42,31.81,80.6,9.17
412,tomatlan,12,MX,1530926683,80,19.93,-105.25,84.22,2.93
413,sistranda,75,NO,1530924600,93,63.73,8.83,50.0,6.93
414,sooke,40,CA,1530925200,60,48.37,-123.73,75.2,14.99
415,prince rupert,90,CA,1530925200,93,54.32,-130.32,57.2,2.24
416,ambilobe,0,MG,1530926384,60,-13.19,49.05,70.99,14.56
417,phan thiet,48,VN,1530926684,100,10.93,108.1,78.64,12.21
418,ornskoldsvik,92,SE,1530924600,72,63.29,18.72,60.8,9.17
419,puerto del rosario,0,ES,1530925200,83,28.5,-13.86,69.8,19.46
420,saint-joseph,0,FR,1530925200,72,43.56,6.97,75.2,3.36
421,kibaya,20,RW,1530925200,72,-2.2,30.56,59.0,3.36
422,tigil,32,RU,1530926686,52,57.8,158.67,65.59,4.05
423,erenhot,56,CN,1530926686,97,43.65,111.97,67.84,7.63
424,marsaxlokk,0,MT,1530924300,73,35.84,14.54,73.4,9.17
425,miri,8,NG,1530926687,87,10.31,9.75,70.45,3.71
426,roald,92,NO,1530924600,93,62.58,6.12,53.6,6.93
427,laguna,75,MX,1530924180,30,27.52,-110.01,96.8,11.41
428,kaeo,56,NZ,1530926378,77,-35.1,173.78,58.21,13.33
429,beohari,48,IN,1530926688,94,24.05,81.38,74.86,5.5
430,mitsamiouli,0,KM,1530926424,97,-11.38,43.28,77.29,12.55
431,visby,0,SE,1530924600,87,57.64,18.3,55.4,4.7
432,kununurra,0,AU,1530925200,24,-15.77,128.74,80.6,16.11
433,cockburn town,76,TC,1530926162,97,21.46,-71.14,82.24,17.36
434,kirakira,80,SB,1530926689,100,-10.46,161.92,81.97,21.16
435,katete,0,UG,1530926689,67,-0.78,29.75,59.11,5.61
436,tonantins,64,BR,1530926689,89,-2.86,-67.77,77.83,3.6
437,kruisfontein,0,ZA,1530926277,90,-34.0,24.73,55.24,4.72
438,yenagoa,92,NG,1530926550,96,4.92,6.26,74.41,4.83
439,shakawe,0,BW,1530926690,62,-18.36,21.84,54.34,9.98
440,sargur,88,IN,1530926690,96,11.98,76.42,68.02,6.4
441,college,1,US,1530925080,43,64.86,-147.8,71.6,5.82
442,hammerfest,80,NO,1530926691,96,70.66,23.68,48.22,8.41
443,marabba,24,SD,1530926691,86,12.35,32.18,73.69,10.42
444,perelyub,92,RU,1530926692,66,51.87,50.37,65.77,3.04
445,grand gaube,40,MU,1530921600,64,-20.01,57.66,73.4,14.99
446,puerto escondido,75,MX,1530924300,70,15.86,-97.07,84.2,8.86
447,dumka,12,IN,1530926692,95,24.27,87.25,77.38,2.93
448,kroya,0,ID,1530926693,84,-6.5,108.06,65.05,3.38
449,lompoc,1,US,1530925080,49,34.64,-120.46,86.0,18.34
450,athabasca,12,CA,1530926693,52,54.72,-113.29,78.73,14.34
451,tuatapere,8,NZ,1530926297,100,-46.13,167.69,49.84,20.71
452,kargasok,20,RU,1530926694,84,59.06,80.87,51.55,2.26
453,saint-lo,0,FR,1530925200,100,49.12,-1.09,57.2,1.12
454,bonavista,12,CA,1530926311,68,48.65,-53.11,60.01,24.52
455,sonqor,0,IR,1530925200,28,34.78,47.6,68.0,2.15
456,fuyang,92,CN,1530926695,96,32.89,115.81,73.78,13.78
457,veraval,0,FR,1530925200,82,49.65,0.71,62.6,3.36
458,lingyuan,92,CN,1530926695,99,41.24,119.4,68.29,4.38
459,amudat,80,UG,1530926559,90,1.95,34.95,57.94,2.82
460,pirapo,12,PY,1530926696,76,-26.85,-55.53,67.66,2.82
461,morant bay,20,JM,1530925200,70,17.88,-76.41,84.2,16.11
462,iqaluit,90,CA,1530925200,100,63.75,-68.52,39.2,2.24
463,kualakapuas,20,ID,1530923400,88,-3.01,114.39,78.8,3.36
464,amapa,75,HN,1530925200,88,15.09,-87.97,82.4,10.29
465,pangnirtung,56,CA,1530926697,86,66.15,-65.72,34.9,2.71
466,xuddur,56,SO,1530926359,76,4.12,43.89,70.72,15.01
467,deer lake,90,CA,1530925200,93,49.18,-57.43,64.4,5.82
468,kupang,20,ID,1530923400,65,-10.16,123.6,82.4,10.29
469,solnechnyy,8,RU,1530926698,72,50.72,136.64,68.38,3.94
470,nalut,0,LY,1530926699,49,31.86,10.98,74.59,6.96
471,stokmarknes,92,NO,1530926699,96,68.56,14.91,50.29,6.96
472,mercedes,92,UY,1530926699,98,-33.25,-58.03,54.43,10.76
473,senno,92,RU,1530921600,93,57.76,27.95,60.8,11.18
474,kikwit,0,CD,1530926700,74,-5.04,18.82,66.76,4.16
475,rumonge,0,BI,1530926700,100,-3.97,29.44,70.18,6.96
476,mega,76,ET,1530926692,96,4.06,38.32,58.21,7.96
477,rzeszow,0,PL,1530925200,93,50.04,22.0,59.0,8.05
478,chumikan,12,RU,1530926701,88,54.72,135.31,55.15,1.81
479,santa maria,75,BR,1530921600,93,-29.69,-53.81,59.0,8.05
480,buraydah,0,SA,1530925200,23,26.33,43.97,93.2,14.99
481,kuching,75,MY,1530923400,74,1.56,110.34,82.4,8.05
482,swadlincote,0,GB,1530924600,77,52.77,-1.56,68.0,6.93
483,victor harbor,75,AU,1530925200,71,-35.55,138.62,53.6,18.34
484,vostok,0,RU,1530926329,66,46.45,135.83,64.24,2.71
485,dingle,88,PH,1530926306,96,11.0,122.67,78.46,4.61
486,platteville,1,US,1530924960,56,42.73,-90.48,75.2,3.36
487,poum,20,MK,1530925200,87,41.28,20.71,59.0,2.24
488,longuenesse,0,FR,1530925200,100,50.74,2.25,64.4,2.24
489,fethiye,0,TR,1530924600,36,36.62,29.12,77.0,3.36
490,christchurch,68,NZ,1530925200,52,-43.53,172.64,66.2,5.82
491,kamenka,44,RU,1530926707,76,53.19,44.05,58.75,4.5
492,shieli,0,KZ,1530926707,30,44.18,66.74,71.62,6.51
493,churapcha,0,RU,1530926707,34,62.0,132.43,79.63,5.39
494,port hedland,0,AU,1530925200,22,-20.31,118.58,66.2,21.92
495,santiago del estero,92,AR,1530926708,98,-27.8,-64.26,54.25,7.63
496,tripoli,0,GR,1530924600,77,37.51,22.37,69.8,6.93
497,bella union,12,CO,1530926708,53,8.5,-73.35,76.66,3.83
498,puerto quijarro,0,BO,1530921600,73,-19.0,-57.72,77.0,4.7
499,reinosa,76,ES,1530926709,99,43.0,-4.14,57.49,0.58
500,umm kaddadah,76,SD,1530926709,73,13.6,26.69,75.49,6.17
501,fakse ladeplads,44,DK,1530924600,87,55.22,12.17,55.4,6.93
502,wajir,56,KE,1530926710,67,1.75,40.07,74.95,13.56
503,warri,68,NG,1530926549,97,5.52,5.75,74.05,4.27
504,guerrero negro,0,MX,1530926369,57,27.97,-114.04,78.64,9.08
505,waynesville,1,US,1530924960,54,37.83,-92.2,84.2,9.17
506,verkhnyachka,20,UA,1530926711,84,48.83,30.04,63.61,2.93
507,lokomotivnyy,0,RU,1530926711,90,53.01,60.57,62.44,2.93
508,batagay-alyta,36,RU,1530926712,91,67.8,130.41,69.37,4.16
509,minab,20,IR,1530921600,79,27.15,57.07,87.8,4.7
510,chernyshevskiy,92,RU,1530926712,96,63.01,112.47,52.99,7.07
511,biak,64,ID,1530926713,100,-0.91,122.88,76.57,4.83
512,minas novas,0,BR,1530926713,51,-17.22,-42.59,63.34,8.75
513,jinka,88,ET,1530926713,89,5.79,36.57,61.27,1.7
514,pizarro,68,CO,1530926713,96,4.95,-77.37,79.45,2.37
515,moerai,88,PF,1530926714,97,-22.43,-151.33,77.38,6.73
516,kang,0,BW,1530926714,81,-23.67,22.79,44.89,9.75
517,killybegs,8,IE,1530926715,96,54.63,-8.45,58.12,4.94
518,del rio,1,US,1530924960,69,29.36,-100.9,82.4,5.82
519,evensk,36,RU,1530926715,74,61.92,159.24,58.75,8.3
520,pandan,92,PH,1530926716,100,11.72,122.09,80.35,13.0
521,chitral,0,PK,1530926716,68,35.85,71.79,36.79,1.36
522,bantacan,8,PH,1530926716,95,7.62,126.13,76.12,3.6
523,matagami,92,NG,1530926717,95,9.67,8.4,69.91,2.93
524,kushima,90,JP,1530924540,94,31.5,131.29,75.2,10.29
525,klyuchi,48,RU,1530926718,54,52.25,79.17,66.67,10.09
526,aranos,0,NA,1530926718,84,-24.14,19.11,46.24,9.98
527,bilma,80,NE,1530926420,16,18.69,12.92,84.49,6.29
528,sao joao da barra,0,BR,1530926718,96,-21.64,-41.05,75.22,11.21
529,ponta delgada,75,PT,1530925200,94,37.73,-25.67,69.8,3.36
530,kieta,24,PG,1530926719,99,-6.22,155.63,81.61,3.71
531,beringovskiy,0,RU,1530926427,100,63.05,179.32,50.83,6.4
532,mandera,68,ET,1530926720,60,3.94,41.86,77.65,15.35
533,kokuy,64,RU,1530926720,84,52.2,117.55,66.13,7.29
534,gulbarga,92,IN,1530926720,95,17.33,76.83,71.17,10.65
535,lazaro cardenas,75,MX,1530924060,42,28.39,-105.62,80.6,8.05
536,kimbe,48,PG,1530926721,100,-5.56,150.15,81.52,8.75
537,stanford,0,ZA,1530926721,79,-34.44,19.45,37.96,2.93
538,beira,0,ES,1530925200,93,43.2,-8.36,60.8,3.36
539,praia,0,BR,1530925200,67,-20.25,-43.81,66.2,8.05
540,villarrubia de los ojos,0,ES,1530926722,41,39.22,-3.61,68.2,7.63
541,hofn,92,IS,1530926723,97,64.25,-15.21,48.49,12.55
542,belmonte,0,PT,1530926723,89,40.36,-7.35,59.2,3.15
